City,Cloudiness,Country,Date,Humidity,Lat,Lng,Max Temp,Wind Speed
rikitea,29,PF,1569609548,73,-23.12,-134.97,72.63,10.83
new norfolk,75,AU,1569609550,96,-42.78,147.06,39.99,3.36
huarmey,100,PE,1569609551,90,-10.07,-78.15,61.47,8.46
avarua,100,CK,1569609513,83,-21.21,-159.78,71.6,2.24
comodoro rivadavia,0,AR,1569609555,43,-45.87,-67.48,73.4,2.24
cape town,20,ZA,1569609311,88,-33.93,18.42,66.0,17.22
barra dos coqueiros,20,BR,1569609558,69,-10.91,-37.04,82.4,17.22
zyryanka,83,RU,1569609560,71,65.73,150.89,26.19,9.33
cockburn town,92,TC,1569609561,70,21.46,-71.14,84.87,6.53
port hardy,20,CA,1569609562,76,50.7,-127.42,51.8,13.87
mahebourg,75,MU,1569609564,73,-20.41,57.7,73.4,12.75
vaini,89,IN,1569609565,93,15.34,74.49,73.89,2.19
hermanus,42,ZA,1569609567,86,-34.42,19.24,66.0,3.0
ushuaia,0,AR,1569609568,37,-54.81,-68.31,55.4,4.72
albany,40,US,1569609291,40,42.65,-73.75,72.0,5.82
qaanaaq,19,GL,1569609571,58,77.48,-69.36,34.47,13.15
tiksi,53,RU,1569609483,90,71.64,128.87,30.87,17.4
port blair,86,IN,1569609305,81,11.67,92.75,81.63,8.88
cortez,1,US,1569609576,45,37.35,-108.58,71.01,4.7
kapaa,1,US,1569609578,83,22.08,-159.32,82.4,3.36
provideniya,100,RU,1569609579,99,64.42,-173.23,40.95,5.73
iwanai,0,JP,1569609547,61,42.97,140.51,51.75,4.52
shasta lake,90,US,1569609582,72,40.68,-122.36,69.01,6.93
portland,20,US,1569609464,56,43.66,-70.25,73.99,9.17
burnie,70,AU,1569609586,88,-41.05,145.91,38.79,4.43
katsuura,75,JP,1569609587,78,33.93,134.5,75.2,5.82
port augusta,0,AU,1569609589,87,-32.49,137.76,51.8,8.05
cabra,0,ES,1569609590,22,37.47,-4.43,87.8,4.7
hithadhoo,62,MV,1569609591,77,-0.6,73.08,83.25,16.08
karoi,0,ZW,1569609593,21,-16.82,29.68,64.53,4.09
bluff,0,AU,1569609594,89,-23.58,149.07,60.03,6.29
georgetown,40,GY,1569609468,94,6.8,-58.16,87.8,6.93
santiago del estero,0,AR,1569609362,17,-27.8,-64.26,89.01,18.25
galle,56,GN,1569609600,92,10.08,-12.83,76.77,4.29
kaitangata,68,NZ,1569609602,49,-46.28,169.85,54.0,13.0
abu dhabi,0,AE,1569609393,70,24.47,54.37,91.4,8.05
busselton,0,AU,1569609605,72,-33.64,115.35,51.01,11.48
san jose iturbide,75,MX,1569609607,49,21.0,-100.38,79.0,8.05
mar del plata,100,AR,1569609608,20,-46.43,-67.52,70.11,18.3
hobart,75,AU,1569609477,96,-42.88,147.33,39.99,3.36
saskylakh,95,RU,1569609611,94,71.97,114.09,29.07,6.93
sao joao da barra,75,BR,1569609612,69,-21.64,-41.05,77.0,9.17
mataura,80,NZ,1569609614,76,-46.19,168.86,52.0,8.01
te anau,100,NZ,1569609615,86,-45.41,167.72,46.17,14.18
tera,40,CY,1569609616,65,34.97,32.42,78.8,5.82
saint-philippe,1,CA,1569609618,55,45.36,-73.48,69.01,12.75
ewo,88,CG,1569609619,79,-0.88,14.81,76.59,9.66
zhigansk,98,RU,1569609622,76,66.77,123.37,32.49,4.03
castro,75,CL,1569609623,76,-42.48,-73.76,55.4,19.46
punta arenas,0,CL,1569609625,41,-53.16,-70.91,59.0,20.8
port-gentil,90,GA,1569609626,100,-0.72,8.78,75.2,12.75
port elizabeth,1,US,1569609628,41,39.31,-74.98,82.0,5.82
victoria,75,BN,1569609629,88,5.28,115.24,80.6,5.35
severo-kurilsk,88,RU,1569609630,79,50.68,156.12,46.53,24.23
teya,75,MX,1569609632,66,21.05,-89.07,93.0,8.05
barrow,100,AR,1569609633,37,-38.31,-60.23,69.03,16.22
mogadishu,15,SO,1569609635,78,2.04,45.34,77.31,9.17
geraldton,90,CA,1569609636,93,49.72,-86.95,42.8,8.05
zabaykalsk,58,CN,1569609638,71,49.64,117.33,50.31,18.01
port alfred,35,ZA,1569609639,58,-33.59,26.89,64.0,1.01
fortuna,75,US,1569609640,82,40.6,-124.16,62.01,3.36
atuona,19,PF,1569609642,71,-9.8,-139.03,79.83,15.88
lata,89,IN,1569609643,94,30.78,78.62,37.89,0.87
eidsvag,0,NO,1569609645,58,62.78,8.07,57.2,17.22
wajima,100,JP,1569609646,85,37.4,136.9,71.37,12.37
bathsheba,75,BB,1569609648,88,13.22,-59.52,80.6,10.29
komsomolskiy,75,RU,1569609649,80,67.55,63.78,31.05,4.47
chuy,100,UY,1569609650,69,-33.69,-53.46,58.59,10.02
guerrero negro,96,MX,1569609652,81,27.97,-114.04,69.21,12.66
berlevag,75,NO,1569609653,87,70.86,29.09,44.6,9.17
hasaki,40,JP,1569609655,100,35.73,140.83,63.0,1.12
east london,0,ZA,1569609656,30,-33.02,27.91,69.8,4.7
grindavik,0,IS,1569609657,87,63.84,-22.43,55.4,17.22
iqaluit,90,CA,1569609659,100,63.75,-68.52,39.2,9.17
kangaatsiaq,0,GL,1569609662,77,68.31,-53.46,43.29,5.99
lavrentiya,100,RU,1569609663,98,65.58,-170.99,40.59,11.63
itoman,20,JP,1569609664,94,26.12,127.67,80.6,4.7
esperance,0,AU,1569609666,100,-33.86,121.89,51.8,4.7
naze,75,NG,1569609667,94,5.43,7.07,75.2,4.7
nouadhibou,0,MR,1569609669,73,20.93,-17.03,73.4,18.34
hilo,20,US,1569609670,70,19.71,-155.08,84.2,4.7
saldanha,25,PT,1569609673,52,41.42,-6.55,70.47,9.48
inhambane,40,MZ,1569609674,64,-23.87,35.38,68.0,14.99
putina,20,PE,1569609677,17,-14.91,-69.87,64.4,11.41
sisimiut,0,GL,1569609679,56,66.94,-53.67,45.81,9.95
alice springs,2,AU,1569609680,67,-23.7,133.88,60.8,11.27
saligao,75,IN,1569609681,88,15.55,73.77,78.8,5.82
nanlong,17,CN,1569609683,70,31.35,106.05,68.49,1.88
constitucion,75,MX,1569609684,43,23.99,-104.67,75.0,6.93
matara,68,BI,1569609686,82,-3.48,29.48,53.73,1.39
cabedelo,40,BR,1569609687,69,-6.97,-34.84,82.4,11.41
cidreira,69,BR,1569609688,59,-30.17,-50.22,65.97,11.36
beisfjord,0,NO,1569609690,87,68.38,17.6,53.01,9.17
maniitsoq,0,GL,1569609691,72,65.42,-52.9,43.11,12.26
arraial do cabo,20,BR,1569609694,65,-22.97,-42.02,78.8,2.24
mount isa,0,AU,1569609695,26,-20.73,139.49,71.6,9.17
cayenne,75,GF,1569609697,62,4.94,-52.33,89.6,13.87
lukoyanov,100,RU,1569609698,82,55.03,44.48,43.29,4.47
mtwara,61,TZ,1569609700,85,-10.28,40.18,67.05,4.43
okhotsk,43,RU,1569609701,64,59.36,143.24,36.45,11.32
punta de piedra,41,VE,1569609703,69,7.62,-71.49,85.59,5.3
sola,95,TZ,1569609704,41,-3.17,33.8,78.57,0.29
sioux lookout,75,CA,1569609705,57,50.1,-91.92,48.2,9.17
tepalcingo,75,MX,1569609707,57,18.6,-98.85,82.99,6.93
margate,75,AU,1569609708,96,-43.03,147.26,39.99,3.36
inverell,48,AU,1569609710,70,-29.78,151.11,50.0,1.01
hovd,0,NO,1569609711,62,63.83,10.7,55.99,11.41
harper,40,US,1569609712,49,30.3,-99.24,91.99,9.17
namatanai,80,PG,1569609714,81,-3.66,152.44,78.03,6.02
roma,0,IT,1569609685,73,41.89,12.48,73.4,2.24
sarila,100,IN,1569609717,87,25.77,79.68,78.75,6.44
kopidlno,90,CZ,1569609718,87,50.33,15.27,60.8,18.34
carnarvon,0,ZA,1569609721,9,-30.97,22.13,64.53,8.99
jaisalmer,32,IN,1569609722,61,26.91,70.91,85.41,18.12
pochutla,90,MX,1569609724,74,15.74,-96.47,88.0,13.87
brae,52,GB,1569609725,93,60.4,-1.35,53.6,11.41
luderitz,98,NA,1569609726,29,-26.65,15.16,77.0,3.36
faanui,74,PF,1569609729,83,-16.48,-151.75,78.57,11.14
broome,0,GB,1569609731,87,52.47,1.45,57.99,12.75
sitka,0,US,1569609732,57,37.17,-99.65,84.99,8.43
innisfail,96,AU,1569609733,94,-17.52,146.03,65.79,3.83
sulangan,71,PH,1569609735,73,11.14,123.72,82.53,3.91
pasighat,72,IN,1569609739,94,28.06,95.33,65.25,3.31
moose factory,90,CA,1569609481,93,51.26,-80.61,53.6,12.75
hay river,75,CA,1569609709,74,60.82,-115.79,37.4,17.22
isangel,100,VU,1569609743,78,-19.55,169.27,72.45,15.05
salalah,40,OM,1569609744,78,17.01,54.1,82.4,10.29
chokurdakh,42,RU,1569609746,90,70.62,147.9,23.13,4.88
jamestown,0,AU,1569609452,79,-33.21,138.6,40.41,7.83
bereda,20,ES,1569609749,77,43.27,-7.54,64.99,6.93
hofn,0,IS,1569609750,57,64.25,-15.21,51.8,19.46
ambilobe,96,MG,1569609751,77,-13.19,49.05,75.87,4.03
oussouye,20,SN,1569609753,79,12.49,-16.54,89.6,4.7
yellowknife,75,CA,1569609754,59,62.45,-114.38,37.4,12.75
okahandja,92,NA,1569609756,7,-21.98,16.91,69.8,3.36
vardo,1,US,1569609757,44,39.62,-77.74,81.0,13.87
roald,0,NO,1569609758,58,62.58,6.12,59.0,8.05
ipilan,54,PH,1569609760,80,8.84,117.9,81.45,5.57
omsukchan,70,RU,1569609761,84,62.53,155.8,21.15,3.89
soe,0,EE,1569609764,81,57.91,26.05,46.0,3.78
bethel,90,US,1569609614,70,60.79,-161.76,48.2,17.22
henties bay,87,NA,1569609767,89,-22.12,14.28,61.0,7.0
tromso,6,NO,1569609768,100,69.65,18.96,39.2,2.24
khatanga,97,RU,1569609770,92,71.98,102.47,30.33,5.68
bredasdorp,24,ZA,1569609771,82,-34.53,20.04,64.99,6.93
butaritari,50,KI,1569609773,66,3.07,172.79,84.15,8.66
avera,1,US,1569609774,35,33.19,-82.53,98.6,9.17
carballo,20,ES,1569609775,77,43.21,-8.69,66.0,6.93
porosozero,88,RU,1569609777,87,62.72,32.71,41.49,2.35
zalesovo,100,RU,1569609778,91,54.0,84.74,45.81,6.96
thompson,75,CA,1569609780,51,55.74,-97.86,37.4,18.34
upernavik,77,GL,1569609781,55,72.79,-56.15,41.85,6.89
san pedro,50,AR,1569609782,38,-33.68,-59.66,73.99,4.0
kyzyl-suu,0,KG,1569609784,58,42.34,78.0,65.79,5.95
sibu,75,MY,1569609785,100,2.29,111.83,75.2,3.36
malanje,96,AO,1569609787,63,-9.54,16.35,72.27,2.06
los llanos de aridane,20,ES,1569609788,69,28.66,-17.92,75.2,13.87
russell,75,US,1569609789,65,38.9,-98.86,86.0,9.17
kavaratti,98,IN,1569609791,72,10.57,72.64,81.81,4.05
humaita,0,AR,1569609792,22,-24.93,-65.37,84.2,12.75
lebu,75,ET,1569609794,72,8.96,38.73,62.6,9.17
puerto ayora,40,EC,1569609795,64,-0.74,-90.35,75.2,5.82
rondonopolis,34,BR,1569609797,38,-16.46,-54.64,94.05,2.71
cabo san lucas,5,MX,1569609726,48,22.89,-109.91,88.0,20.8
vanimo,39,PG,1569609802,74,-2.67,141.3,81.45,4.56
tazovskiy,100,RU,1569609806,95,67.47,78.7,35.01,8.66
nikolskoye,90,RU,1569609809,87,59.7,30.79,48.99,4.47
padang,35,ID,1569609810,86,-0.92,100.36,78.75,14.58
bubaque,42,GW,1569609812,78,11.28,-15.83,81.27,7.74
raudeberg,75,NO,1569609813,76,61.99,5.14,60.8,2.24
bangolo,52,CI,1569609814,68,7.01,-7.49,81.99,1.43
lorengau,48,PG,1569609816,82,-2.02,147.27,79.29,7.74
santa rosa,25,AR,1569609819,34,-36.62,-64.29,80.73,24.27
pevek,100,RU,1569609821,95,69.7,170.27,36.99,17.43
mitchell,75,US,1569609823,67,43.71,-98.03,62.01,12.75
torbay,90,CA,1569609824,100,47.66,-52.73,55.99,3.36
dikson,100,RU,1569609827,87,73.51,80.55,34.65,9.33
mehamn,75,NO,1569609828,87,71.03,27.85,44.6,9.17
lompoc,40,US,1569609830,82,34.64,-120.46,71.6,5.59
aksu,90,KZ,1569609831,100,52.04,76.93,46.4,11.18
port arthur,75,US,1569609737,55,29.9,-93.93,87.8,12.75
honiara,20,SB,1569609834,94,-9.43,159.96,75.2,3.36
grand gaube,75,MU,1569609838,73,-20.01,57.66,73.4,12.75
atar,50,MR,1569609839,7,20.52,-13.05,108.09,11.97
bitung,20,ID,1569609841,88,1.44,125.19,73.4,2.24
tyssedal,100,NO,1569609842,93,60.12,6.56,55.99,1.01
narsaq,20,GL,1569609844,40,60.91,-46.05,51.8,3.36
souillac,84,FR,1569609845,77,45.6,-0.6,64.99,6.93
kahului,20,US,1569609671,69,20.89,-156.47,82.4,4.7
longyearbyen,75,NO,1569609848,74,78.22,15.63,28.4,6.93
laguna,40,BZ,1569609849,70,16.17,-88.94,87.8,11.41
mayo,40,CA,1569609851,80,63.59,-135.9,30.2,2.24
havoysund,75,NO,1569609852,100,71.0,24.66,44.6,3.36
camopi,19,GF,1569609854,44,3.17,-52.33,91.35,7.14
santiago,19,PH,1569609855,97,16.69,121.54,72.63,0.58
ust-tsilma,86,RU,1569609856,89,65.44,52.15,34.11,1.61
ilulissat,40,GL,1569609858,34,69.22,-51.1,51.8,17.22
lahaina,20,US,1569609861,65,20.87,-156.68,84.2,5.26
benghazi,0,LY,1569609863,69,32.12,20.07,77.49,11.01
axim,100,GH,1569609865,88,4.87,-2.24,77.49,12.66
saint george,20,GR,1569609867,49,39.45,22.34,71.6,5.82
arlit,0,NE,1569609869,6,18.74,7.39,99.99,9.51
rocha,100,UY,1569609870,63,-34.48,-54.34,61.83,11.27
cherskiy,100,RU,1569609873,79,68.75,161.3,26.91,6.51
ancud,75,CL,1569609874,76,-41.87,-73.83,55.4,19.46
bonthe,30,SL,1569609877,78,7.53,-12.5,80.37,10.58
vao,2,EE,1569609881,93,59.1,26.19,45.09,3.53
talcahuano,90,CL,1569609883,82,-36.72,-73.12,55.4,14.99
takoradi,98,GH,1569609884,88,4.89,-1.75,76.77,7.07
jilin,0,CN,1569609887,81,43.84,126.54,59.13,4.25
yongan,62,CN,1569609888,56,39.7,113.69,56.79,2.86
tuktoyaktuk,90,CA,1569609890,73,69.44,-133.03,35.6,14.99
norman wells,75,CA,1569609728,69,65.28,-126.83,39.2,2.24
vila velha,20,BR,1569609893,62,-3.71,-38.6,84.2,17.22
mezen,95,RU,1569609894,80,65.85,44.24,39.51,5.77
ribeira grande,20,PT,1569609895,88,38.52,-28.7,73.4,10.29
ponta do sol,71,BR,1569609897,52,-20.63,-46.0,78.03,0.85
ust-maya,100,RU,1569609899,90,60.42,134.54,34.83,3.62
aklavik,75,CA,1569609728,81,68.22,-135.01,35.6,2.24
mandalgovi,14,MN,1569609902,77,45.76,106.27,47.07,8.32
ust-karsk,100,RU,1569609904,88,52.71,118.82,52.83,9.35
pechora,97,RU,1569609905,94,65.12,57.16,30.69,4.34
majene,80,ID,1569609906,73,-3.54,118.97,81.27,17.96
rondon,0,BR,1569609908,32,-23.42,-52.77,84.51,4.92
tura,45,RU,1569609909,88,64.27,100.22,26.73,4.97
rawson,100,AR,1569609911,43,-43.3,-65.11,69.75,28.23
port hawkesbury,20,CA,1569609912,77,45.62,-61.36,66.0,20.8
ozinki,99,RU,1569609914,77,51.2,49.73,48.15,15.79
neiafu,75,TO,1569609915,83,-18.65,-173.98,73.4,8.05
erzin,0,TR,1569609916,69,36.95,36.2,77.0,12.75
san cristobal,99,HN,1569609918,55,14.68,-86.92,86.49,0.87
derzhavinsk,15,KZ,1569609919,48,51.1,66.31,42.39,5.75
severomuysk,100,RU,1569609921,93,56.17,113.57,23.13,6.64
bambous virieux,75,MU,1569609922,73,-20.34,57.76,73.4,12.75
sao filipe,0,CV,1569609923,83,14.9,-24.5,78.57,13.27
vostok,0,RU,1569609925,75,46.45,135.83,52.65,5.14
tutoia,0,BR,1569609926,66,-2.76,-42.27,87.8,24.16
kaeng khoi,6,TH,1569609928,79,14.59,101.0,79.0,6.71
kavieng,29,PG,1569609929,74,-2.57,150.8,83.97,11.7
vuktyl,75,RU,1569609933,94,63.86,57.31,29.79,7.9
fort nelson,75,CA,1569609795,78,58.81,-122.69,37.4,4.7
yeppoon,40,AU,1569609936,87,-23.13,150.74,60.8,1.1
dunmore east,20,IE,1569609937,71,52.15,-6.99,59.0,6.93
jiquinlaca,90,HN,1569609939,68,14.0,-88.35,82.53,3.62
quatre cocos,75,MU,1569609940,73,-20.21,57.76,73.4,12.75
gat,81,SN,1569609942,74,14.69,-16.54,93.2,8.05
tasiilaq,75,GL,1569609943,70,65.61,-37.64,44.6,2.24
talnakh,75,RU,1569609944,96,69.49,88.39,33.8,11.18
salinopolis,33,BR,1569609946,80,-0.61,-47.36,80.91,20.29
yarada,75,IN,1569609947,94,17.65,83.27,77.0,2.24
salym,99,RU,1569609949,96,60.06,71.48,34.29,4.83
puerto armuelles,40,PA,1569609950,70,8.27,-82.86,86.0,5.82
lipno,100,PL,1569609951,85,52.85,19.18,60.01,1.99
norsup,85,VU,1569609957,76,-16.07,167.38,75.51,12.82
egvekinot,100,RU,1569609960,99,66.32,-179.17,35.01,3.53
aviles,75,ES,1569609961,82,43.55,-5.92,66.0,6.93
sorland,0,NO,1569609962,81,67.67,12.69,48.2,5.93
millinocket,1,US,1569609964,48,45.66,-68.71,69.01,12.75
kupang,24,ID,1569609967,78,-10.16,123.6,75.2,8.05
gizo,20,IL,1569609968,74,31.8,34.94,80.01,3.36
husavik,1,CA,1569609971,55,50.56,-96.99,51.01,5.01
seoul,75,KR,1569609238,93,37.57,126.98,68.0,2.24
bambanglipuro,82,ID,1569609974,90,-7.95,110.28,75.15,5.41
buala,17,SB,1569609975,80,-8.15,159.59,79.65,5.53
alofi,75,NU,1569609976,73,-19.06,-169.92,73.4,10.29
pedernales,97,EC,1569609978,87,0.07,-80.05,72.63,16.96
trofors,0,NO,1569609979,61,65.54,13.39,55.0,9.17
coihaique,0,CL,1569609981,22,-45.58,-72.07,68.0,5.82
oriximina,6,BR,1569609982,48,-1.77,-55.87,93.51,1.41
korcula,0,HR,1569609983,56,42.96,17.14,68.0,5.82
ahipara,5,NZ,1569609985,100,-35.17,173.16,46.0,13.47
waipawa,0,NZ,1569609986,79,-39.94,176.59,50.0,11.01
bilma,0,NE,1569609988,8,18.69,12.92,94.95,4.97
marquette,90,US,1569609991,93,46.54,-87.4,57.99,11.41
oranjemund,2,ZA,1569609992,57,-28.55,16.43,65.43,6.6
klaksvik,40,FO,1569609993,87,62.23,-6.59,51.8,3.36
tisul,100,RU,1569609995,69,55.76,88.31,38.79,6.89
murdochville,19,CA,1569609997,61,48.96,-65.49,55.89,16.04
adeje,100,NG,1569609999,87,5.68,5.76,77.85,8.08
nuevo progreso,40,US,1569610000,49,26.05,-97.95,96.8,8.05
saint-joseph,0,FR,1569610002,82,43.56,6.97,73.4,3.36
kununurra,75,AU,1569610003,73,-15.77,128.74,73.4,3.11
tarakan,14,ID,1569610005,80,3.3,117.63,78.57,3.67
fort-shevchenko,37,KZ,1569610006,55,44.51,50.26,60.03,17.4
litovko,62,RU,1569610007,98,49.24,135.18,51.57,5.48
goderich,91,CA,1569610009,44,43.74,-81.71,73.0,3.0
kaeo,10,NZ,1569610010,100,-35.1,173.78,50.0,5.41
coxim,22,BR,1569610012,27,-18.5,-54.75,96.03,2.75
qianan,0,CN,1569610013,56,44.99,124.06,62.73,15.14
ponta delgada,20,PT,1569610014,83,37.73,-25.67,73.4,12.75
bima,80,ID,1569610016,97,-8.45,118.73,67.77,2.01
nyuksenitsa,97,RU,1569610017,93,60.41,44.24,36.99,6.4
thinadhoo,80,MV,1569610019,78,0.53,72.93,83.07,12.64
conakry,40,GN,1569610020,78,9.52,-13.7,82.4,2.24
tobetsu,20,JP,1569610022,100,43.26,141.53,48.99,1.12
emerald,6,AU,1569610023,77,-23.53,148.16,62.6,5.82
whitehorse,20,CA,1569609904,69,60.72,-135.06,41.0,3.36
ambovombe,75,MG,1569610026,83,-25.18,46.09,72.81,32.64
salto,0,BR,1569610026,44,-23.2,-47.29,79.0,12.75
saint anthony,20,US,1569610030,71,43.97,-111.68,62.01,6.93
chase,1,US,1569610031,48,38.35,-98.35,90.0,10.29
casper,90,US,1569609945,93,42.87,-106.31,46.0,13.87
sabang,54,PH,1569610034,92,13.8,121.11,79.0,2.33
ola,0,RU,1569610035,53,59.58,151.3,36.27,5.68
nemuro,43,JP,1569610037,84,43.32,145.57,59.67,7.23
port moresby,98,PG,1569610038,89,-9.47,147.16,76.95,20.51
perth,0,AU,1569609761,87,-31.95,115.86,55.99,12.75
lazaro cardenas,20,MX,1569610041,47,28.39,-105.62,80.6,4.7
verkhnyaya inta,92,RU,1569610042,86,65.99,60.32,32.31,5.66
astana,0,KZ,1569610044,86,51.13,71.43,37.4,6.71
coolum beach,55,AU,1569610045,86,-26.53,153.09,66.0,1.86
lagoa,0,PT,1569610047,78,37.14,-8.45,81.0,4.7
jurm,0,AF,1569610048,36,36.86,70.83,54.99,5.17
petropavlovsk-kamchatskiy,45,RU,1569610049,75,53.05,158.65,37.4,6.71
chalmette,0,US,1569610052,52,29.94,-89.96,93.0,8.05
airai,6,TL,1569610054,77,-8.93,125.41,67.77,3.87
lyambir,99,RU,1569610055,80,54.28,45.12,42.75,5.17
chupa,20,PE,1569610056,17,-15.11,-69.99,64.4,11.41
florianopolis,0,BR,1569609908,56,-27.6,-48.55,78.01,23.04
wiang sa,42,TH,1569610059,95,8.64,99.37,74.07,0.96
limerick,40,IE,1569609943,82,52.66,-8.63,55.4,17.22
hami,55,CN,1569610062,24,42.84,93.51,69.75,4.52
daru,100,PG,1569610063,90,-9.07,143.21,74.61,8.25
camacha,75,PT,1569610065,68,33.08,-16.33,71.6,10.29
thunder bay,90,CA,1569609828,71,48.41,-89.26,57.99,12.75
kodiak,75,US,1569610067,55,39.95,-94.76,87.01,13.87
calvinia,0,ZA,1569610069,16,-31.47,19.78,68.31,3.36
capao da canoa,84,BR,1569610076,57,-29.75,-50.01,68.31,10.02
kamina,77,CD,1569610078,58,-8.74,25.0,71.51,4.18
pachmarhi,100,IN,1569610079,93,22.47,78.44,73.31,6.02
lawrenceburg,52,US,1569610082,41,35.24,-87.33,93.2,12.75
banda aceh,10,ID,1569610083,73,5.56,95.32,82.31,2.98
san quintin,0,PH,1569610085,90,17.54,120.52,74.93,3.24
tuatapere,100,NZ,1569610087,76,-46.13,167.69,52.0,8.01
yar-sale,76,RU,1569610089,97,66.83,70.83,31.01,0.69
natal,20,BR,1569609841,62,-5.81,-35.21,84.2,14.99
port hedland,0,AU,1569610092,77,-20.31,118.58,64.4,8.05
sainte-marie,40,CA,1569610093,67,46.45,-71.03,62.01,11.41
shellbrook,90,CA,1569609902,64,53.22,-106.39,39.2,9.17
kruisfontein,28,ZA,1569610097,50,-34.0,24.73,62.33,2.95
kalawit,65,PH,1569610098,88,7.91,122.53,75.11,3.0
balikpapan,72,ID,1569610100,93,-1.24,116.86,71.15,3.53
evensk,91,RU,1569610101,61,61.92,159.24,33.71,7.65
baghdad,0,IQ,1569610103,32,33.3,44.38,80.6,4.7
adrar,40,DZ,1569610104,8,27.87,-0.29,107.6,9.17
ovsyanka,100,RU,1569610105,97,53.58,126.91,52.25,4.94
zhangye,0,CN,1569610107,22,38.94,100.46,59.45,4.38
bonavista,100,CA,1569610108,82,48.65,-53.11,50.0,6.17
richards bay,0,ZA,1569610110,73,-28.77,32.06,65.93,18.84
sinnamary,2,GF,1569610111,75,5.38,-52.96,83.21,16.4
rosetta,40,EG,1569610112,65,31.4,30.42,77.0,9.17
batticaloa,65,LK,1569610114,90,7.71,81.69,75.11,1.81
dingle,78,PH,1569610117,89,11.0,122.67,74.57,1.95
bosaso,66,SO,1569610118,76,11.28,49.18,86.81,13.78
serpneve,34,UA,1569610120,88,46.3,29.02,57.47,4.72
krechevitsy,91,RU,1569610121,91,58.62,31.4,46.31,1.23
auburn,1,US,1569610067,46,44.1,-70.23,73.99,3.11
altay,83,CN,1569610125,61,47.83,88.13,45.05,3.18
shaunavon,97,CA,1569610126,92,49.65,-108.41,38.03,12.82
obidos,20,PT,1569610128,77,39.36,-9.16,71.6,18.34
puerto morazan,40,NI,1569610129,70,12.85,-87.17,87.8,4.7
beloha,90,MG,1569610131,78,-25.17,45.06,72.23,4.27
ouesso,45,CG,1569610133,86,1.61,16.05,72.77,0.96
hobyo,4,SO,1569610135,72,5.35,48.53,77.45,24.0
san miguel,0,AR,1569610136,59,-34.54,-58.72,71.01,13.87
osypenko,0,UA,1569610138,47,48.04,34.39,59.0,3.69
pero pinheiro,20,PT,1569610139,77,38.86,-9.32,73.4,16.11
shingu,56,JP,1569610140,97,33.72,135.99,62.51,5.08
sampit,100,ID,1569610142,97,-2.54,112.95,74.57,1.7
singapore,75,MY,1569610135,83,1.29,103.85,82.4,3.36
cape coast,48,GH,1569610144,88,5.11,-1.24,77.99,13.76
yulara,20,AU,1569610146,31,-25.24,130.99,60.8,3.36
hirara,87,JP,1569610149,86,24.8,125.28,81.05,15.01
tupiza,100,BO,1569610150,7,-21.44,-65.72,69.89,7.58
sawakin,0,SD,1569610152,43,19.1,37.33,85.19,3.65
biak,96,ID,1569610153,98,-0.91,122.88,59.99,3.38
touros,40,BR,1569609951,61,-5.2,-35.46,82.4,13.87
laurel,1,US,1569609893,36,39.1,-76.85,82.0,6.93
leh,97,IN,1569610157,38,34.16,77.58,43.97,4.0
gairo,97,TZ,1569610158,67,-6.14,36.87,66.65,9.13
manacapuru,40,BR,1569610160,83,-3.3,-60.62,75.2,5.82
puerto carreno,40,CO,1569610156,55,6.19,-67.49,91.4,4.7
dalvik,75,SE,1569610163,100,57.79,14.13,55.99,6.93
metro,34,ID,1569610164,86,-5.11,105.31,74.03,4.21
marzuq,83,YE,1569610167,51,14.4,46.47,77.63,4.9
ekibastuz,100,KZ,1569610168,87,51.72,75.32,44.87,14.05
puerto quijarro,0,BO,1569610169,40,-19.0,-57.72,95.0,6.93
erftstadt,40,DE,1569610171,77,50.82,6.77,63.0,4.7
rafsanjan,18,IR,1569610172,15,30.4,55.99,66.47,3.06
la grande,1,US,1569610174,58,45.32,-118.09,66.0,10.02
coquimbo,40,CL,1569610175,63,-29.95,-71.34,60.8,9.17
luganville,97,VU,1569610176,93,-15.51,167.18,68.27,3.96
hamilton,75,CA,1569610168,52,43.26,-79.87,73.99,14.99
nurota,0,UZ,1569610179,23,40.56,65.69,77.0,9.17
viedma,100,AR,1569610181,30,-40.81,-62.99,76.37,23.47
jitra,75,MY,1569610182,94,6.27,100.42,77.0,2.24
wilmington,1,US,1569610158,29,39.75,-75.55,80.01,8.05
boende,100,CD,1569610186,67,-0.28,20.88,77.99,1.54
praia,40,BR,1569610188,45,-20.25,-43.81,82.4,4.7
fare,36,PF,1569610189,85,-16.7,-151.02,77.81,10.98
kirakira,36,SB,1569610190,85,-10.46,161.92,77.09,4.94
batagay-alyta,100,RU,1569610192,73,67.8,130.41,18.59,5.21
brewster,75,US,1569610193,68,41.76,-70.08,72.0,4.7
nikitinskiy,75,RU,1569610195,100,45.0,37.87,59.0,4.47
yinchuan,0,CN,1569610196,42,38.48,106.21,63.05,3.0
fukue,40,JP,1569610198,78,35.03,136.69,73.4,6.93
rehoboth,61,NA,1569610199,7,-23.31,17.08,63.05,8.81
przhevalskoye,0,RU,1569610200,81,55.51,31.85,41.45,1.61
balkanabat,0,TM,1569610203,49,39.51,54.36,75.11,5.19
namie,69,JP,1569610205,68,37.52,140.86,63.0,4.76
mabaruma,50,GY,1569610206,89,8.2,-59.78,81.59,4.65
chunskiy,47,RU,1569610207,71,56.08,99.63,31.19,4.36
winnemucca,90,US,1569610209,42,40.97,-117.74,66.2,4.7
horasan,64,TR,1569610210,44,40.04,42.16,59.81,6.22
ariquemes,29,BR,1569610212,38,-9.91,-63.03,93.83,3.13
turayf,0,SA,1569610216,21,31.68,38.65,80.6,5.82
kanigiri,100,IN,1569610217,83,15.41,79.51,79.07,3.51
pergamino,53,AR,1569610219,36,-33.9,-60.57,78.01,5.99
santa maria del oro,0,MX,1569610221,46,25.95,-105.37,76.19,4.36
clyde river,75,CA,1569609991,93,70.47,-68.59,39.2,5.82
carlyle,90,CA,1569610224,81,49.63,-102.27,46.99,6.93
fengzhen,73,CN,1569610225,57,40.43,113.15,55.67,3.18
sherbakul,93,RU,1569610227,100,54.63,72.39,33.8,4.47
nyrob,99,RU,1569610228,98,60.74,56.73,32.45,6.31
ciudad bolivar,37,VE,1569610230,53,8.12,-63.55,90.95,6.2
loa janan,72,ID,1569610232,93,-0.58,117.09,74.03,2.84
aksay,94,KZ,1569610234,59,51.17,53.01,47.21,7.36
alta floresta,75,BR,1569610235,41,-9.87,-56.08,95.0,2.24
kalmunai,65,LK,1569610237,90,7.42,81.82,75.11,1.81
zhongxing,1,CN,1569610238,90,19.57,109.85,69.53,2.48
dana point,90,US,1569609967,68,33.47,-117.7,73.99,9.17
burns lake,100,CA,1569610241,95,54.23,-125.76,34.07,8.05
schleiden,12,DE,1569610242,93,50.53,6.48,62.01,8.05
karlshamn,90,SE,1569610244,100,56.17,14.86,55.4,4.7
wanaka,85,NZ,1569610245,53,-44.7,169.14,50.0,8.01
omboue,100,GA,1569610246,87,-1.57,9.26,77.09,14.97
panguipulli,90,CL,1569610248,93,-39.64,-72.33,55.4,10.29
qostanay,0,KZ,1569610249,86,53.17,63.58,33.8,6.71
stavrovo,99,RU,1569610251,87,56.13,40.01,42.53,6.44
kutahya,20,TR,1569610158,82,39.42,29.98,63.0,8.05
mount pleasant,40,US,1569610253,48,33.16,-94.97,90.0,10.29
tsaratanana,33,MG,1569610255,80,-16.8,47.65,66.65,10.89
skjervoy,0,NO,1569610256,93,70.03,20.97,41.0,2.24
prince albert,90,CA,1569610258,64,53.2,-105.75,39.2,9.17
khandyga,100,RU,1569610259,86,62.65,135.58,34.61,2.62
aquiraz,20,BR,1569610261,65,-3.9,-38.39,82.4,16.11
tsiroanomandidy,82,MG,1569610262,49,-18.77,46.05,74.57,2.68
czersk,100,PL,1569610263,94,53.8,17.98,60.01,11.01
nago,40,IT,1569610265,82,45.88,10.89,69.8,2.24
ous,99,RU,1569610266,95,60.91,61.52,34.79,3.22
tombouctou,0,ML,1569610268,8,16.77,-3.01,102.47,11.1
ust-charyshskaya pristan,100,RU,1569610269,79,52.39,83.67,51.71,6.33
darhan,1,MN,1569610271,89,49.49,105.92,33.89,1.72
flin flon,90,CA,1569610272,55,54.77,-101.88,37.4,14.99
kamenka,44,MD,1569610273,88,48.03,28.7,51.01,3.0
leningradskiy,100,RU,1569610275,98,69.38,178.42,39.65,9.17
jieshi,0,CN,1569610276,77,22.82,115.83,80.01,2.26
oranjestad,20,AW,1569610138,63,12.52,-70.03,91.4,19.46
nyurba,41,RU,1569610279,87,63.29,118.35,29.57,5.39
liverpool,40,GB,1569610280,82,53.41,-2.98,57.2,10.29
bacungan,20,PH,1569610282,83,9.87,118.73,80.6,9.17
les herbiers,90,FR,1569610283,87,46.87,-1.01,61.0,8.05
huambo,98,AO,1569610285,81,-12.78,15.73,61.25,2.01
bodden town,40,KY,1569610286,70,19.28,-81.25,89.6,4.7
scarborough,97,GB,1569610287,82,54.28,-0.41,55.99,12.75
pangnirtung,90,CA,1569610289,32,66.15,-65.72,51.8,11.41
nouakchott,9,MR,1569610290,74,18.08,-15.98,84.2,16.11
camalu,62,MX,1569610292,83,30.85,-116.07,68.27,9.4
tartagal,41,AR,1569610293,36,-22.52,-63.8,93.2,17.22
waitati,92,NZ,1569610295,45,-45.75,170.57,55.99,13.0
taoudenni,22,ML,1569610297,6,22.68,-3.98,105.35,12.12
noumea,0,NC,1569610299,77,-22.28,166.46,72.0,1.12
dudinka,75,RU,1569610300,96,69.41,86.18,33.8,11.18
pacific grove,90,US,1569610302,72,36.62,-121.92,73.99,4.7
minbu,56,MM,1569610303,80,20.18,94.88,72.59,2.48
san felipe,58,CL,1569610304,90,-32.75,-70.73,72.0,5.53
haines junction,0,CA,1569610160,59,60.75,-137.51,33.17,1.77
vestmannaeyjar,40,IS,1569610312,100,63.44,-20.27,48.2,11.41
vytegra,28,RU,1569610314,69,61.01,36.45,44.33,3.42
wucheng,7,CN,1569610315,80,29.09,119.57,64.31,1.99
novomalorossiyskaya,100,RU,1569610317,75,45.63,39.89,62.33,5.3
independencia,35,MX,1569610318,73,20.06,-97.05,77.63,6.15
neuquen,0,AR,1569610204,27,-38.95,-68.06,78.8,4.7
kattivakkam,20,IN,1569610321,83,13.22,80.32,84.0,4.7
san lorenzo,58,HN,1569610322,72,13.43,-87.45,85.91,5.82
cedral,52,MX,1569610324,41,23.82,-100.72,76.55,2.17
belaya gora,100,RU,1569610325,77,68.54,146.19,27.23,3.51
pringsewu,44,ID,1569610327,97,-5.36,104.98,71.15,1.99
jakar,100,BT,1569610328,95,27.55,90.75,47.21,1.32
ugoofaaru,100,MV,1569610331,69,5.67,73.0,83.75,5.88
zyryanovsk,98,KZ,1569610332,58,49.74,84.27,46.85,4.14
las palmas,56,CO,1569610334,74,9.27,-75.33,84.65,7.27
shelburne,20,CA,1569610067,40,44.08,-80.2,71.6,12.75
vangaindrano,50,MG,1569610336,96,-23.35,47.6,67.73,3.36
zabid,84,YE,1569610338,77,14.2,44.5,68.99,2.19
bollnas,85,SE,1569610339,94,61.35,16.39,50.0,7.38
pakdasht,0,IR,1569610341,12,35.48,51.68,80.6,4.7
fujin,0,CN,1569610342,88,47.24,132.03,57.47,6.85
bombay,1,US,1569610343,49,44.94,-74.57,69.01,9.17
longyan,4,CN,1569610345,82,25.1,117.03,63.59,2.37
olopa,95,GT,1569610346,36,14.69,-89.35,88.0,1.99
usakos,79,NA,1569610348,20,-22.0,15.59,71.51,10.33
jiayuguan,8,CN,1569610349,16,39.77,98.29,64.31,3.94
yaan,85,NG,1569610351,80,7.38,8.57,79.97,3.42
bandarbeyla,4,SO,1569610352,57,9.49,50.81,81.23,6.98
riviere-au-renard,20,CA,1569610354,48,49.0,-64.4,64.4,12.75
chapais,75,CA,1569610355,51,49.78,-74.86,59.0,12.75
along,60,IN,1569610358,94,28.17,94.8,53.33,4.38
homer,1,US,1569610359,64,59.64,-151.54,43.0,4.7
bahia blanca,94,AR,1569610239,27,-38.72,-62.27,77.45,20.89
ewa beach,20,US,1569610363,69,21.32,-158.01,84.0,3.36
riyadh,0,SA,1569610365,33,24.63,46.72,91.4,3.36
puerto escondido,90,MX,1569610366,69,15.86,-97.07,80.6,9.17
cody,90,US,1569610368,75,44.53,-109.06,54.0,3.36
nanortalik,10,GL,1569610369,80,60.14,-45.24,41.99,10.89
fairbanks,75,US,1569610139,86,64.84,-147.72,37.0,2.04
zeerust,0,ZA,1569610372,18,-25.54,26.07,68.0,6.93
selizharovo,60,RU,1569610373,88,56.86,33.45,41.09,2.64
maxixe,40,MZ,1569610375,64,-23.86,35.35,68.0,14.99
aswan,0,EG,1569610376,15,24.09,32.9,93.2,4.7
monte patria,0,CL,1569610377,35,-30.69,-70.96,69.35,8.28
kudahuvadhoo,64,MV,1569610379,75,2.67,72.89,83.21,9.51
diu,100,IN,1569610380,92,20.71,70.98,78.17,7.63
makakilo city,75,US,1569610382,78,21.35,-158.09,84.0,3.36
masallatah,0,LY,1569610383,82,32.62,14.0,70.07,9.66
matagami,20,NG,1569610385,73,9.67,8.4,73.4,3.09
katobu,82,ID,1569610386,91,-4.94,122.53,73.67,2.71
san clemente,90,US,1569610257,69,33.43,-117.61,73.99,9.17
moyale,88,ET,1569610389,62,3.52,39.05,72.77,9.28
ishigaki,100,JP,1569610390,87,24.34,124.16,80.87,12.1
punta alta,0,AR,1569610392,31,-27.46,-55.82,96.8,5.82
sur,52,OM,1569610284,54,22.57,59.53,85.73,10.87
harrogate,0,AU,1569610394,81,-34.95,139.01,48.99,3.36
pisco,20,PE,1569610396,30,-13.71,-76.2,71.6,11.41
muroto,61,JP,1569610397,93,33.37,134.14,70.25,5.26
maningrida,87,AU,1569610399,88,-12.05,134.23,68.09,3.85
baghmara,100,IN,1569610400,98,23.8,86.21,70.61,6.29
newport,51,GB,1569610401,82,51.59,-3.0,60.01,14.99
kailua,75,US,1569610403,78,21.39,-157.74,84.0,3.36
aitape,69,PG,1569610404,85,-3.15,142.36,76.55,4.34
pokhara,100,NP,1569610406,93,28.21,83.99,51.71,1.95
bingol,1,TR,1569610407,39,38.88,40.49,67.01,6.67
tanout,0,NE,1569610409,12,14.97,8.88,98.69,8.23
anadyr,90,RU,1569610410,100,64.73,177.51,42.8,9.19
